{
	"wineries":[
		{
			"name":"Angels Gate Winery",
			"location": {
				"address":"4260 Mountainview Road",
				"city":"Lincoln",
				"telephone":"9055633942",
				"latitude":43.164524,
				"longitude":-79.500314
			}
		},
		{
			"name":"13th Street Winery",
			"location": {
				"address":"1776 Fourth Avenue",
				"city":"St. Catharines",
				"telephone":"9059848463",
				"latitude":43.15372,
				"longitude":-79.312928
			}
		},
		{
			"name":"Between the Lines Winery",
			"location": {
				"address":"991 Four Mile Creek Road",
				"city":"Niagara-on-the-Lake",
				"telephone":"9052620289",
				"latitude":43.19355,
				"longitude":-79.106046
			}
		},
		{
			"name":"Calamus Estate",
			"location": {
				"address":"3100 Glen Rd",
				"city":"Lincoln",
				"telephone":"9055629303",
				"latitude":43.130161,
				"longitude":-79.378975
			}
		},
		{
			"name":"Cattail Creek Estate",
			"location": {
				"address":"1156 Concession 6 Road",
				"city":"Niagara-on-the-Lake",
				"telephone":"9059889463",
				"latitude":43.20089,
				"longitude":-79.136674
			}
		},
		{
			"name":"Cave Spring Cellars",
			"location": {
				"address":"3836 Main Street",
				"city":"Jordan",
				"telephone":"9055623581",
				"latitude":43.149326,
				"longitude":-79.369979
			}
		},
		{
			"name":"Coyote's Run Estate",
			"location": {
				"address":"685 Concession 5 Road",
				"city":"St. Davids",
				"telephone":"9056828310",
				"latitude":43.169668,
				"longitude":-79.121858
			}
		},
		{
			"name":"Creekside Estate Winery",
			"location": {
				"address":"2170 Fourth Ave.",
				"city":"Jordan Station",
				"telephone":"9055620035",
				"latitude":43.152749,
				"longitude":-79.332951
			}
		},
		{
			"name":"De Sousa Wine Cellars",
			"location": {
				"address":"3753 Quarry Road",
				"city":"Lincoln",
				"telephone":"9055637269",
				"latitude":43.141518,
				"longitude":-79.458473
			}
		},
		{
			"name":"Diamond Estates",
			"location": {
				"address":"1067 Niagara Stone Road",
				"city":"Niagara-on-the-Lake",
				"telephone":"9056854673",
				"latitude":43.205537,
				"longitude":-79.142095
			}
		},
		{
			"name":"Di Profio Wines",
			"location": {
				"address":"4055 Nineteenth St.",
				"city":"Jordan Station",
				"telephone":"9055627080",
				"latitude":43.159135,
				"longitude":-79.367997
			}
		},
		{
			"name":"Featherstone Estate",
			"location": {
				"address":"3678 Victoria Ave",
				"city":"Lincoln",
				"telephone":"9055621949",
				"latitude":43.140023,
				"longitude":-79.39466
			}
		},
		{
			"name":"Fielding Estate Winery",
			"location": {
				"address":"4020 Locust Lane",
				"city":"Lincoln",
				"telephone":"9055630668",
				"latitude":43.152082,
				"longitude":-79.495061
			}
		},
		{
			"name":"Flat Rock Cellars",
			"location": {
				"address":"2727 Seventh Ave",
				"city":"Lincoln",
				"telephone":"9055628994",
				"latitude":43.124834,
				"longitude":-79.360045
			}
		},
		{
			"name":"Frogpond Farm Organic Winery",
			"location": {
				"address":"1385 Larkin Road",
				"city":"Niagara-on-the-Lake",
				"telephone":"9054681079",
				"latitude":43.199912,
				"longitude":-79.071393
			}
		},
		{
			"name":"Good Earth Food and Wine Co.",
			"location": {
				"address":"4556 Lincoln Avenue",
				"city":"Beamsville",
				"telephone":"9055636333",
				"latitude":43.17676,
				"longitude":-79.489238
			}
		},
		{
			"name":"Henry of Pelham Family Estate",
			"location": {
				"address":"1469 Pelham Road",
				"city":"St. Catharines",
				"telephone":"9056848423",
				"latitude":43.109179,
				"longitude":-79.295468
			}
		},
		{
			"name":"Hernder Estate",
			"location": {
				"address":"1607 Eighth Avenue Louth",
				"city":"St. Catharines",
				"telephone":"9056843300",
				"latitude":43.11793,
				"longitude":-79.303293
			}
		},
		{
			"name":"Inniskillin Wines",
			"location": {
				"address":"1499 Line 3",
				"city":"Niagara-on-the-Lake",
				"telephone":"9054682187",
				"latitude":43.211517,
				"longitude":-79.064898
			}
		},
		{
			"name":"Jackson-Triggs Niagara Estate",
			"location": {
				"address":"2145 Niagara Stone Road",
				"city":"Niagara-on-the-Lake",
				"telephone":"9054684637",
				"latitude":43.2452006,
				"longitude":-79.0925778
			}
		},
		{
			"name":"Konzelmann Estate",
			"location": {
				"address":"1096 Lakeshore Road",
				"city":"Niagara-on-the-Lake",
				"telephone":"9059352866",
				"latitude":43.250194,
				"longitude":-79.141422
			}
		},
		{
			"name":"Lailey Vineyard",
			"location": {
				"address":"15940 Niagara River Parkway",
				"city":"Niagara-on-the-Lake",
				"telephone":"9054680503",
				"latitude":43.233885,
				"longitude":-79.062058
			}
		},
		{
			"name":"Legends Estates",
			"location": {
				"address":"4888 Ontario St.",
				"city":"Beamsville",
				"telephone":"9055636500",
				"latitude":43.194571,
				"longitude":-79.477406
			}
		},
		{
			"name":"Malivoire Wine Company",
			"location": {
				"address":"4260 King St.",
				"city":"Lincoln",
				"telephone":"9055639253",
				"latitude":43.157835,
				"longitude":-79.438518
			}
		},
		{
			"name":"Marynissen Estates",
			"location": {
				"address":"1208 Concession 1 RR#6",
				"city":"Niagara-on-the-Lake",
				"telephone":"9054687270",
				"latitude":43.205806,
				"longitude":-79.072036
			}
		},
		{
			"name":"Megalomaniac Winery",
			"location": {
				"address":"3930 Cherry Ave",
				"city":"Lincoln",
				"telephone":"9055625155",
				"latitude":43.153319,
				"longitude":-79.419131
			}
		},
		{
			"name":"Palatine Hills Estate",
			"location": {
				"address":"911 Lakeshore Road",
				"city":"Niagara-on-the-Lake",
				"telephone":"9056469617",
				"latitude":43.245055,
				"longitude":-79.151099
			}
		},
		{
			"name":"Peller Estates",
			"location": {
				"address":"290 John Street East",
				"city":"Niagara-on-the-Lake",
				"telephone":"9054684678",
				"latitude":43.23862,
				"longitude":-79.067024
			}
		},
		{
			"name":"Peninsula Ridge Estates",
			"location": {
				"address":"5600 King Street",
				"city":"Beamsville",
				"telephone":"9055630900",
				"latitude":43.176786,
				"longitude":-79.50896
			}
		},
		{
			"name":"Pillitteri Estates",
			"location": {
				"address":"1696 Niagara Stone Road",
				"city":"Niagara-on-the-Lake",
				"telephone":"9054683147",
				"latitude":43.229351,
				"longitude":-79.113922
			}
		},
		{
			"name":"PondView Estate",
			"location": {
				"address":"925 Line 2 R.R. 2",
				"city":"Niagara-on-the-Lake",
				"telephone":"9054680777",
				"latitude":43.218343,
				"longitude":-79.101691
			}
		},
		{
			"name":"Ravine Vineyard",
			"location": {
				"address":"1366 York Road",
				"city":"Niagara-on-the-Lake",
				"telephone":"9052628463",
				"latitude":43.158765,
				"longitude":-79.105277
			}
		},
		{
			"name":"Reif Estate",
			"location": {
				"address":"15608 Niagara River Parkway",
				"city":"Niagara-on-the-Lake",
				"telephone":"9054689463",
				"latitude":43.217467,
				"longitude":-79.061483
			}
		},
		{
			"name":"Riverview Cellars",
			"location": {
				"address":"15376 Niagara River Parkway",
				"city":"Niagara-on-the-Lake",
				"telephone":"9052620636",
				"latitude":43.205787,
				"longitude":-79.059261
			}
		},
		{
			"name":"Silversmith Brewing Company",
			"location": {
				"address":"1523 Niagara Stone Rd",
				"city":"Niagara-on-the-Lake",
				"telephone":"9054688447",
				"latitude":43.222318,
				"longitude":-79.121458
			}
		},
		{
			"name":"Small Talk Vineyards",
			"location": {
				"address":"1242 Irvine Road",
				"city":"Niagara-on-the-Lake",
				"telephone":"9059353535",
				"latitude":43.2260596,
				"longitude":-79.1713144
			}
		},
		{
			"name":"Southbrook Vineyards",
			"location": {
				"address":"581 Niagara Stone Road",
				"city":"Niagara-on-the-Lake",
				"telephone":"9056412548",
				"latitude":43.189949,
				"longitude":-79.162015
			}
		},
		{
			"name":"Strewn Winery",
			"location": {
				"address":"1339 Lakeshore Road",
				"city":"Niagara-on-the-Lake",
				"telephone":"9054681229",
				"latitude":43.252749,
				"longitude":-79.125011
			}
		},
		{
			"name":"Sue-Ann Staff Estate",
			"location": {
				"address":"3210 Staff Avenue",
				"city":"Lincoln",
				"telephone":"9055621719",
				"latitude":43.120441,
				"longitude":-79.355383
			}
		},
		{
			"name":"Sunnybrook Farm Estate",
			"location": {
				"address":"1425 Lakeshore Road",
				"city":"Niagara-on-the-Lake",
				"telephone":"9054681122",
				"latitude":43.25209,
				"longitude":-79.120114
			}
		},
		{
			"name":"The Foreign Affair Winery",
			"location": {
				"address":"4890 Victoria Ave. North",
				"city":"Vineland",
				"telephone":"9055629898",
				"latitude":43.190127,
				"longitude":-79.397796
			}
		},
		{
			"name":"The Ice House Winery",
			"location": {
				"address":"14778 Niagara River Parkway",
				"city":"Niagara-on-the-Lake",
				"telephone":"8553316161",
				"latitude":43.178566,
				"longitude":-79.05842
			}
		},
		{
			"name":"Thirty Bench Wine Makers",
			"location": {
				"address":"4821 Mountainview Road",
				"city":"Beamsville",
				"email":"info@thirtybench.com",
				"telephone":"9055631698",
				"latitude":43.165487,
				"longitude":-79.49706
			}
		},
		{
			"name":"Trius Winery at Hillebrand",
			"location": {
				"address":"1249 Niagara Stone Road",
				"city":"Niagara-on-the-Lake",
				"email":"info@triuswines.com",
				"telephone":"8005828412",
				"latitude":43.212028,
				"longitude":-79.134806
			}
		},
		{
			"name":"Vignoble Winery",
			"location": {
				"address":"1829 Concession 4",
				"city":"Niagara-on-the-Lake",
				"telephone":"9054682882",
				"latitude":43.235387,
				"longitude":-79.111181
			}
		},
		{
			"name":"Vieni Estates Inc",
			"location": {
				"address":"4553 Fly Road",
				"city":"Beamsville",
				"telephone":"9055636521",
				"latitude":43.135714,
				"longitude":-79.45168
			}
		},
		{
			"name":"Vineland Estates",
			"location": {
				"address":"3620 Moyer Road",
				"city":"Vineland",
				"telephone":"8888463526",
				"latitude":43.142781,
				"longitude":-79.405446
			}
		}
	]
}